[
  {
    "id": "MXCD02",
    "name": "Centro de Fulfillment MXCD02",
    "address": "004, 54607 Tepotzotlán, Estado de México",
    "lat": 19.7148,
    "lng": -99.2204,
    "ambito": "industrial_metro",
    "status": "operativo",
    "type": "fulfillment",
    "capacity": "alto_volumen",
    "region": "Estado de México"
  },
  {
    "id": "MXCD05",
    "name": "Centro de Fulfillment MXCD05",
    "address": "Av. Lic. Arturo Montiel Rojas, Fraccionamiento San Buenaventura, Estado de México",
    "lat": 19.6829818,
    "lng": -99.1501409,
    "ambito": "industrial_metro",
    "status": "operativo",
    "type": "fulfillment",
    "capacity": "alto_volumen",
    "region": "Estado de México"
  },
  {
    "id": "MXCD06",
    "name": "Centro de Fulfillment MXCD06",
    "address": "Autopista México-Querétaro Km 32, Cuautitlán Izcalli, Estado de México",
    "lat": 19.6777484,
    "lng": -99.1459531,
    "ambito": "industrial_metro",
    "status": "operativo",
    "type": "fulfillment",
    "capacity": "alto_volumen",
    "region": "Estado de México"
  },
  {
    "id": "MXCD07",
    "name": "Centro de Fulfillment MXCD07",
    "address": "Parque Industrial Toluca 2000, Toluca, Estado de México",
    "lat": 19.6914216,
    "lng": -99.2348665,
    "ambito": "industrial_metro",
    "status": "operativo",
    "type": "fulfillment",
    "capacity": "alto_volumen",
    "region": "Estado de México"
  },
  {
    "id": "MXCD08",
    "name": "Centro de Fulfillment MXCD08",
    "address": "Carretera Texcoco-Lechería Km 15, Tecámac, Estado de México",
    "lat": 19.9825926,
    "lng": -99.5108115,
    "ambito": "industrial_metro",
    "status": "operativo",
    "type": "fulfillment",
    "capacity": "alto_volumen",
    "region": "Estado de México"
  },
  {
    "id": "MXCD09",
    "name": "Centro de Fulfillment MXCD09",
    "address": "Carretera México-Puebla Km 19.5, Los Reyes La Paz, Estado de México",
    "lat": 19.6738029,
    "lng": -99.1426233,
    "ambito": "industrial_metro",
    "status": "operativo",
    "type": "fulfillment",
    "capacity": "alto_volumen",
    "region": "Estado de México"
  },
  {
    "id": "MXCD11",
    "name": "Centro de Fulfillment MXCD11",
    "address": "Av. Lic. Arturo Montiel Rojas, Fraccionamiento Industrial San Antonio, Estado de México",
    "lat": 19.6738856,
    "lng": -99.1424519,
    "ambito": "industrial_metro",
    "status": "operativo",
    "type": "fulfillment",
    "capacity": "alto_volumen",
    "region": "Estado de México"
  },
  {
    "id": "MXCD14",
    "name": "Centro de Fulfillment MXCD14",
    "address": "Autopista México-Querétaro Km 28, Tultitlán, Estado de México",
    "lat": 19.6667591,
    "lng": -99.149023,
    "ambito": "industrial_metro",
    "status": "en_construccion",
    "type": "fulfillment",
    "capacity": "alto_volumen",
    "region": "Estado de México"
  },
  {
    "id": "MXRC03",
    "name": "Centro Regional MXRC03",
    "address": "Parque Industrial Cuautitlán, Cuautitlán, Estado de México",
    "lat": 19.664294,
    "lng": -99.1481462,
    "ambito": "industrial_metro",
    "status": "operativo",
    "type": "regional",
    "capacity": "medio_volumen",
    "region": "Estado de México"
  },
  {
    "id": "MXCD10",
    "name": "Centro de Fulfillment MXCD10",
    "address": "Parque Industrial PLATAH, Villa de Tezontepec, Hidalgo, CP 43880",
    "lat": 19.913814687435444,
    "lng": -98.84430394068863,
    "ambito": "industrial_semiurb",
    "status": "operativo",
    "type": "fulfillment",
    "capacity": "alto_volumen",
    "region": "Hidalgo"
  },
  {
    "id": "MXCD12",
    "name": "Centro de Fulfillment MXCD12",
    "address": "Parque Industrial PLATAH, Villa de Tezontepec, Hidalgo, CP 43880",
    "lat": 19.913814687435444,
    "lng": -98.84430394068863,
    "ambito": "industrial_semiurb",
    "status": "operativo",
    "type": "fulfillment",
    "capacity": "alto_volumen",
    "region": "Hidalgo"
  },
  {
    "id": "MXCD13",
    "name": "Centro de Fulfillment MXCD13",
    "address": "Parque Industrial PLATAH, Villa de Tezontepec, Hidalgo, CP 43880",
    "lat": 19.913814687435444,
    "lng": -98.84430394068863,
    "ambito": "industrial_semiurb",
    "status": "operativo",
    "type": "fulfillment",
    "capacity": "alto_volumen",
    "region": "Hidalgo"
  },
  {
    "id": "MXNL01",
    "name": "Centro de Fulfillment MXNL01",
    "address": "Parque Industrial Stiva Aeropuerto, Apodaca, Nuevo León",
    "lat": 25.720977,
    "lng": -100.131198,
    "ambito": "industrial_suburb",
    "status": "operativo",
    "type": "fulfillment",
    "capacity": "alto_volumen",
    "region": "Nuevo León"
  },
  {
    "id": "MXNL02",
    "name": "Centro de Fulfillment MXNL02",
    "address": "Carretera Miguel Alemán Km 24.2, García, Nuevo León",
    "lat": 25.8163496,
    "lng": -100.3430254,
    "ambito": "industrial_suburb",
    "status": "en_construccion",
    "type": "fulfillment",
    "capacity": "alto_volumen",
    "region": "Nuevo León"
  },
  {
    "id": "MXJL01",
    "name": "Centro de Fulfillment MXJL01",
    "address": "Parque Industrial El Álamo, Guadalajara, Jalisco",
    "lat": 20.5696392,
    "lng": -103.2971913,
    "ambito": "industrial_mixta",
    "status": "operativo",
    "type": "fulfillment",
    "capacity": "alto_volumen",
    "region": "Guadalajara"
  },
  {
    "id": "MXJL02",
    "name": "Centro de Fulfillment MXJL02",
    "address": "Carretera Guadalajara-Chapala Km 18.5, Tlaquepaque, Jalisco",
    "lat": 20.5500419,
    "lng": -103.2584913,
    "ambito": "industrial_mixta",
    "status": "en_construccion",
    "type": "fulfillment",
    "capacity": "alto_volumen",
    "region": "Guadalajara"
  },
  {
    "id": "MXGT01",
    "name": "Centro de Fulfillment MXGT01",
    "address": "León, Guanajuato",
    "lat": 21.0257012,
    "lng": -101.6039604,
    "ambito": "industrial_mixta",
    "status": "operativo",
    "type": "fulfillment",
    "capacity": "alto_volumen",
    "region": "Guanajuato"
  }
]